City,Cloudiness,Country,Date,Humidity,Lat,Lng,Max Temp,Wind Speed
punta arenas,75,CL,Thu Jan 23 01:46:46 2020,81,-53.15,-70.92,50,13.87
atuona,74,PF,Thu Jan 23 01:51:45 2020,70,-9.8,-139.03,81.19,9.71
san patricio,23,MX,Thu Jan 23 01:51:45 2020,71,19.22,-104.7,79.27,4.7
katsuura,75,JP,Thu Jan 23 01:51:45 2020,87,35.13,140.3,45,8.05
lagoa,15,PT,Thu Jan 23 01:48:16 2020,71,39.05,-27.98,57.94,14.63
tuatapere,36,NZ,Thu Jan 23 01:51:45 2020,74,-46.13,167.68,64,14
weligama,24,LK,Thu Jan 23 01:47:12 2020,71,5.97,80.42,81.77,12.08
norman wells,75,CA,Thu Jan 23 01:51:46 2020,76,65.28,-126.83,-5.8,2.24
carnarvon,0,AU,Thu Jan 23 01:51:46 2020,47,-24.87,113.63,78.8,17.22
bambous virieux,75,MU,Thu Jan 23 01:51:46 2020,94,-20.34,57.76,78.8,11.41
lima,90,PE,Thu Jan 23 01:48:47 2020,78,-12.04,-77.03,75.2,5.82
san joaquin,100,VE,Thu Jan 23 01:51:47 2020,89,10.26,-67.79,74.66,2.06
candolim,46,IN,Thu Jan 23 01:51:47 2020,64,15.52,73.76,73.4,6.93
mataura,43,NZ,Thu Jan 23 01:51:47 2020,74,-46.19,168.86,64,14
georgetown,20,MY,Thu Jan 23 01:49:50 2020,78,5.41,100.34,82.4,3.36
avarua,100,CK,Thu Jan 23 01:48:15 2020,88,-21.21,-159.78,80.6,8.05
port elizabeth,20,ZA,Thu Jan 23 01:51:48 2020,88,-33.92,25.57,62.6,6.93
hofn,68,IS,Thu Jan 23 01:51:48 2020,66,64.25,-15.21,38.03,51.81
doksy,90,CZ,Thu Jan 23 01:51:48 2020,86,50.56,14.66,36,4.7
mircea voda,43,RO,Thu Jan 23 01:51:48 2020,64,44.28,28.17,37.4,12.75
vaini,40,TO,Thu Jan 23 01:51:49 2020,79,-21.2,-175.2,84.2,13.87
yuli,12,NG,Thu Jan 23 01:51:49 2020,22,9.7,10.27,67.59,10.71
castro,100,BR,Thu Jan 23 01:50:36 2020,99,-24.79,-50.01,57.27,7.61
provideniya,0,RU,Thu Jan 23 01:51:49 2020,76,64.38,-173.3,-5.8,2.24
hilo,20,US,Thu Jan 23 01:47:22 2020,54,19.73,-155.09,80.6,13.87
syracuse,0,IT,Thu Jan 23 01:51:50 2020,100,37.09,15.28,48.99,8.05
anchorage,75,US,Thu Jan 23 01:48:06 2020,85,61.22,-149.9,15.8,9.17
busselton,100,AU,Thu Jan 23 01:51:50 2020,38,-33.65,115.33,73.99,8.21
itoman,75,JP,Thu Jan 23 01:42:40 2020,73,26.12,127.67,73.4,11.41
cape canaveral,90,US,Thu Jan 23 01:51:50 2020,100,28.41,-80.6,55.99,11.41
bluff,56,NZ,Thu Jan 23 01:51:51 2020,74,-46.6,168.33,64,14
qaanaaq,39,GL,Thu Jan 23 01:50:58 2020,51,77.48,-69.36,-7.71,6.38
yellowknife,90,CA,Thu Jan 23 01:51:51 2020,84,62.46,-114.35,6.8,11.41
hermanus,6,ZA,Thu Jan 23 01:48:18 2020,86,-34.42,19.23,69.01,10
kaitangata,4,NZ,Thu Jan 23 01:51:51 2020,68,-46.28,169.85,66.99,17.49
albany,1,US,Thu Jan 23 01:50:45 2020,85,42.6,-73.97,27,1.57
negara,0,ID,Thu Jan 23 01:51:52 2020,75,-8.32,114.6,82.47,2.71
lebu,0,CL,Thu Jan 23 01:48:29 2020,97,-37.62,-73.65,52.72,2.53
saint anthony,75,US,Thu Jan 23 01:51:52 2020,97,45.02,-93.22,34,4.7
mahebourg,75,MU,Thu Jan 23 01:51:52 2020,94,-20.41,57.7,78.8,11.41
saint george,1,US,Thu Jan 23 01:49:19 2020,86,37.1,-113.58,53.6,2.89
saskylakh,0,RU,Thu Jan 23 01:48:13 2020,92,71.92,114.08,-39.14,9.33
marfino,40,RU,Thu Jan 23 01:51:53 2020,79,55.7,37.38,30.2,17.9
lompoc,1,US,Thu Jan 23 01:51:53 2020,82,34.64,-120.46,62.01,9.17
rikitea,12,PF,Thu Jan 23 01:51:53 2020,75,-23.12,-134.97,79.61,12.46
kapaa,40,US,Thu Jan 23 01:51:54 2020,65,22.08,-159.32,78.8,9.17
santa fe,0,AR,Thu Jan 23 01:51:54 2020,71,-31.63,-60.7,82,3
linhares,100,BR,Thu Jan 23 01:49:42 2020,97,-19.39,-40.07,73.17,0.49
nishihara,75,JP,Thu Jan 23 01:51:54 2020,69,26.18,127.76,75.2,10.29
laguna,1,US,Thu Jan 23 01:51:28 2020,82,38.42,-121.42,59,4.99
hobart,75,AU,Thu Jan 23 01:49:17 2020,67,-42.88,147.33,64,9.17
guiratinga,100,BR,Thu Jan 23 01:51:55 2020,95,-16.35,-53.76,73.26,2.24
narsaq,62,GL,Thu Jan 23 01:38:52 2020,72,60.92,-46.05,15.8,3.36
iqaluit,40,CA,Thu Jan 23 01:51:55 2020,68,63.75,-68.51,-20,2.24
kautokeino,100,NO,Thu Jan 23 01:51:55 2020,84,69.01,23.04,10.38,5.48
igrim,100,RU,Thu Jan 23 01:43:23 2020,95,63.19,64.42,17.31,7.85
wanaka,0,NZ,Thu Jan 23 01:51:55 2020,39,-44.7,169.15,71.53,5.44
karratha,0,AU,Thu Jan 23 01:42:42 2020,72,-20.74,116.85,84.56,16.62
uri,32,IN,Thu Jan 23 01:51:56 2020,81,34.08,74.03,24.55,10.89
kavieng,0,PG,Thu Jan 23 01:43:21 2020,75,-2.57,150.8,83.7,12.86
olafsvik,100,IS,Thu Jan 23 01:51:56 2020,58,64.89,-23.71,32.54,45.9
rio gallegos,90,AR,Thu Jan 23 01:51:41 2020,81,-51.62,-69.22,50,9.17
lasa,5,IT,Thu Jan 23 01:51:57 2020,58,46.62,10.7,35.01,4.7
saldanha,0,ZA,Thu Jan 23 01:51:57 2020,63,-33.01,17.94,66.2,2.24
bull savanna,8,JM,Thu Jan 23 01:51:57 2020,84,17.89,-77.59,60.78,9.84
kodiak,1,US,Thu Jan 23 01:51:57 2020,53,57.79,-152.41,26.6,6.93
mitsamiouli,100,KM,Thu Jan 23 01:51:57 2020,79,-11.38,43.28,82.2,18.52
trairi,87,BR,Thu Jan 23 01:51:58 2020,89,-3.28,-39.27,75.18,2.89
rosario,0,AR,Thu Jan 23 01:50:58 2020,78,-32.95,-60.64,82.99,5.82
bredasdorp,36,ZA,Thu Jan 23 01:50:55 2020,86,-34.53,20.04,64,10
bambanglipuro,35,ID,Thu Jan 23 01:51:58 2020,59,-7.95,110.28,86.99,3.27
chapais,90,CA,Thu Jan 23 01:51:58 2020,92,49.78,-74.85,28.4,14.99
sao filipe,66,CV,Thu Jan 23 01:48:09 2020,76,14.9,-24.5,70.86,8.68
lodja,100,CD,Thu Jan 23 01:51:59 2020,93,-3.48,23.43,70.81,2.35
buala,66,SB,Thu Jan 23 01:43:21 2020,73,-8.14,159.59,84.63,8.97
ajaccio,5,FR,Thu Jan 23 01:51:59 2020,87,42,8.92,55.4,6.93
mahajanga,75,MG,Thu Jan 23 01:52:00 2020,94,-15.72,46.32,78.8,27.51
torbay,90,CA,Thu Jan 23 01:52:00 2020,79,47.67,-52.73,23,10.29
mar del plata,40,AR,Thu Jan 23 01:47:28 2020,94,-38,-57.56,69.8,5.82
cabo san lucas,75,MX,Thu Jan 23 01:52:00 2020,82,22.89,-109.91,70,4.7
puerto ayora,27,EC,Thu Jan 23 01:52:00 2020,56,-0.74,-90.35,75.99,3
broome,1,US,Thu Jan 23 01:52:01 2020,85,42.25,-75.83,28.4,3.29
thompson,20,CA,Thu Jan 23 01:52:01 2020,83,55.74,-97.86,-4,2.24
buraydah,0,SA,Thu Jan 23 01:52:01 2020,75,26.33,43.98,41,2.24
saint-philippe,90,RE,Thu Jan 23 01:47:36 2020,88,-21.36,55.77,78.8,2.24
sola,0,VU,Thu Jan 23 01:43:11 2020,64,-13.88,167.55,81.77,11.61
fairview,1,US,Thu Jan 23 01:52:02 2020,64,40.81,-74,35.01,2.26
viedma,33,AR,Thu Jan 23 01:52:02 2020,38,-40.81,-63,76.6,20.18
sioux lookout,90,CA,Thu Jan 23 01:43:09 2020,79,50.1,-91.92,24.8,9.17
bubaque,99,GW,Thu Jan 23 01:52:02 2020,63,11.28,-15.83,77.31,16.82
lorengau,0,PG,Thu Jan 23 01:50:52 2020,77,-2.02,147.27,83.1,13.67
pocone,100,BR,Thu Jan 23 01:51:40 2020,91,-16.26,-56.62,76.53,3.04
east london,98,ZA,Thu Jan 23 01:52:03 2020,73,-33.02,27.91,70.03,11.27
fairbanks,75,US,Thu Jan 23 01:40:32 2020,75,64.84,-147.72,-5.8,1.14
kaeo,0,NZ,Thu Jan 23 01:48:49 2020,56,-35.1,173.78,80.01,8.99
ostrovnoy,100,RU,Thu Jan 23 01:52:04 2020,87,68.05,39.51,23.4,27.22
piranhas,100,BR,Thu Jan 23 01:52:04 2020,98,-16.43,-51.82,70.38,7.11
bengkulu,78,ID,Thu Jan 23 01:42:57 2020,65,-3.8,102.27,85.17,3.33
longyearbyen,21,SJ,Thu Jan 23 01:52:04 2020,59,78.22,15.64,3.2,2.24
chumikan,16,RU,Thu Jan 23 01:52:04 2020,78,54.72,135.31,-1.93,3.2
santa cruz,75,BO,Thu Jan 23 01:52:04 2020,88,-17.8,-63.17,78.8,11.41
caxito,40,AO,Thu Jan 23 01:52:05 2020,83,-8.58,13.66,80.6,4.7
vardo,100,NO,Thu Jan 23 01:47:19 2020,75,70.37,31.11,26.78,23.31
macia,0,MZ,Thu Jan 23 01:52:05 2020,89,-25.03,33.1,67.48,2.3
astoria,90,US,Thu Jan 23 01:52:05 2020,87,46.19,-123.83,51.8,19.46
mehamn,100,NO,Thu Jan 23 01:43:00 2020,83,71.04,27.85,20.14,13.65
ilulissat,100,GL,Thu Jan 23 01:52:06 2020,66,69.22,-51.1,10.4,14.99
upernavik,100,GL,Thu Jan 23 01:52:06 2020,93,72.79,-56.15,0.32,8.79
macamic,90,CA,Thu Jan 23 01:52:06 2020,86,48.75,-79,30.2,17.22
cayenne,91,GF,Thu Jan 23 01:38:26 2020,94,4.93,-52.33,71.6,3.36
mahina,20,PF,Thu Jan 23 01:51:22 2020,66,-17.51,-149.49,87.8,16.11
aldan,100,RU,Thu Jan 23 01:52:06 2020,94,58.6,125.39,-15.83,6.91
tuktoyaktuk,90,CA,Thu Jan 23 01:52:07 2020,75,69.45,-133.04,-14.8,8.05
skowhegan,1,US,Thu Jan 23 01:47:18 2020,73,44.77,-69.72,25,5.82
jamestown,1,US,Thu Jan 23 01:48:23 2020,58,42.1,-79.24,30.99,9.17
khatanga,88,RU,Thu Jan 23 01:52:07 2020,87,71.97,102.5,-33.32,9.62
beidao,67,CN,Thu Jan 23 01:52:07 2020,59,34.57,105.89,37.2,3.83
ushuaia,75,AR,Thu Jan 23 01:52:08 2020,71,-54.8,-68.3,50,9.17
ulaanbaatar,0,MN,Thu Jan 23 01:52:08 2020,68,47.91,106.88,-20.2,2.24
praia da vitoria,75,PT,Thu Jan 23 01:52:08 2020,82,38.73,-27.07,57.2,16.71
new norfolk,75,AU,Thu Jan 23 01:52:08 2020,67,-42.78,147.06,64,6.93
harper,100,LR,Thu Jan 23 01:52:08 2020,94,4.38,-7.72,75.99,2.06
koumra,0,TD,Thu Jan 23 01:52:08 2020,16,8.91,17.55,65.79,8.41
port hedland,0,AU,Thu Jan 23 01:52:09 2020,52,-20.32,118.57,93.2,8.05
maragogi,100,BR,Thu Jan 23 01:52:09 2020,81,-9.01,-35.22,81.7,15.08
solnechnyy,39,RU,Thu Jan 23 01:52:09 2020,97,50.72,136.63,-1.39,4.68
port alfred,92,ZA,Thu Jan 23 01:52:09 2020,97,-33.59,26.89,63,1.99
nantucket,1,US,Thu Jan 23 01:49:38 2020,73,41.28,-70.1,33.01,8.88
san quintin,33,MX,Thu Jan 23 01:52:10 2020,45,30.48,-115.95,37,10
constitucion,59,CL,Thu Jan 23 01:52:10 2020,94,-35.33,-72.42,56.61,5.23
cape town,0,ZA,Thu Jan 23 01:49:30 2020,59,-33.93,18.42,69.01,8.05
novoagansk,99,RU,Thu Jan 23 01:52:10 2020,91,61.94,76.66,8.49,17.02
sao joao da barra,100,BR,Thu Jan 23 01:52:10 2020,89,-21.64,-41.05,73.13,6.13
francisco sa,75,BR,Thu Jan 23 01:52:10 2020,100,-16.48,-43.49,71.6,2.24
paamiut,100,GL,Thu Jan 23 01:43:04 2020,70,61.99,-49.67,19.15,7.45
christchurch,0,NZ,Thu Jan 23 01:48:02 2020,60,-43.53,172.63,75,16.11
adrar,100,MR,Thu Jan 23 01:52:11 2020,29,20.5,-10.07,63,7.49
saint-junien,100,FR,Thu Jan 23 01:52:11 2020,37,45.88,0.9,52,13.87
mangrol,0,IN,Thu Jan 23 01:52:11 2020,60,21.12,70.12,67.24,20.29
saint-georges,20,GD,Thu Jan 23 01:52:12 2020,83,12.06,-61.75,77,5.82
deputatskiy,86,RU,Thu Jan 23 01:43:16 2020,91,69.3,139.9,-25.67,3.74
butaritari,45,KI,Thu Jan 23 01:48:15 2020,63,3.07,172.79,84.79,4.16
nouna,100,BF,Thu Jan 23 01:52:12 2020,25,12.73,-3.87,74.53,5.3
onega,100,RU,Thu Jan 23 01:52:12 2020,84,63.91,38.14,23.34,24.27
tiksi,48,RU,Thu Jan 23 01:52:13 2020,86,71.69,128.87,-28.12,4.07
cabedelo,40,BR,Thu Jan 23 01:52:13 2020,88,-6.98,-34.83,80.6,4.7
pacific grove,20,US,Thu Jan 23 01:52:13 2020,87,36.62,-121.92,59,4.7
nanortalik,100,GL,Thu Jan 23 01:52:13 2020,76,60.14,-45.24,25.36,22.5
bethel,1,US,Thu Jan 23 01:52:13 2020,73,41.37,-73.41,30,1.66
korla,100,CN,Thu Jan 23 01:52:14 2020,58,41.76,86.15,17.85,2.39
sokoni,99,TZ,Thu Jan 23 01:52:14 2020,84,-6.43,39.55,81.37,10.85
nalut,51,LY,Thu Jan 23 01:52:14 2020,41,30.33,10.85,49.89,12.5
isangel,75,VU,Thu Jan 23 01:43:04 2020,78,-19.55,169.27,82.4,3.36
muli,81,MV,Thu Jan 23 01:52:15 2020,80,2.92,73.57,83.23,22.44
cidreira,94,BR,Thu Jan 23 01:52:15 2020,81,-30.18,-50.21,71.49,12.15
bandundu,100,CD,Thu Jan 23 01:52:15 2020,83,-3.32,17.37,73.96,2.91
derzhavinsk,100,KZ,Thu Jan 23 01:52:15 2020,91,51.1,66.32,27.99,26.51
komsomolskiy,75,UZ,Thu Jan 23 01:38:52 2020,86,40.43,71.72,28.4,4.7
camapua,100,BR,Thu Jan 23 01:52:15 2020,96,-19.53,-54.04,73.35,4.83
clyde river,75,CA,Thu Jan 23 01:52:16 2020,75,70.47,-68.59,-14.8,5.82
canala,90,NC,Thu Jan 23 01:52:16 2020,48,-21.53,165.95,87.8,11.41
pangnirtung,88,CA,Thu Jan 23 01:52:16 2020,92,66.15,-65.71,-30.12,3.02
goderich,100,CA,Thu Jan 23 01:52:16 2020,83,43.75,-81.72,27,10.94
along,100,IN,Thu Jan 23 01:52:16 2020,90,28.17,94.77,50.02,2.68
ordynskoye,100,RU,Thu Jan 23 01:52:17 2020,91,54.37,81.9,18.12,17.69
hithadhoo,2,MV,Thu Jan 23 01:52:17 2020,80,-0.6,73.08,84.72,16.24
sao jose da coroa grande,100,BR,Thu Jan 23 01:52:17 2020,81,-8.9,-35.15,81.7,15.08
kaabong,71,UG,Thu Jan 23 01:52:17 2020,36,3.48,34.15,64.92,5.41
ternate,100,ID,Thu Jan 23 01:52:17 2020,56,0.8,127.4,87.21,6.69
aguadilla,1,PR,Thu Jan 23 01:52:18 2020,88,18.43,-67.15,79,3.36
teguise,47,ES,Thu Jan 23 01:52:18 2020,71,29.06,-13.56,57.2,5.82
senanga,100,ZM,Thu Jan 23 01:52:18 2020,89,-16.12,23.27,68.25,0.31
ponta do sol,20,PT,Thu Jan 23 01:52:18 2020,58,32.67,-17.1,59,6.93
balikpapan,20,ID,Thu Jan 23 01:52:19 2020,70,-1.27,116.83,86,12.75
champerico,1,GT,Thu Jan 23 01:52:19 2020,90,14.3,-91.92,73.99,1.88
motygino,59,RU,Thu Jan 23 01:43:14 2020,96,58.18,94.76,-9.87,3.31
praia,95,CV,Thu Jan 23 01:43:00 2020,83,14.92,-23.51,69.8,13.87
milcovul,0,RO,Thu Jan 23 01:52:19 2020,58,45.65,27.25,33.75,12.01
kajaani,75,FI,Thu Jan 23 01:52:19 2020,85,64.17,27.67,23,5.82
saint-pierre,90,RE,Thu Jan 23 01:52:20 2020,88,-21.34,55.48,78.8,2.24
sept-iles,90,CA,Thu Jan 23 01:41:52 2020,85,50.2,-66.38,21.2,12.75
sosnovoborsk,40,RU,Thu Jan 23 01:52:20 2020,76,56.13,93.36,-4,2.24
chengde,0,CN,Thu Jan 23 01:52:20 2020,64,40.97,117.94,26.15,4.27
severo-kurilsk,97,RU,Thu Jan 23 01:52:20 2020,81,50.68,156.12,18.37,13.33
impfondo,66,CG,Thu Jan 23 01:52:21 2020,36,1.64,18.07,66.34,1.32
ahipara,0,NZ,Thu Jan 23 01:52:21 2020,71,-35.17,173.17,66.56,11.5
tura,0,IN,Thu Jan 23 01:52:21 2020,47,25.52,90.22,63.3,3.22
barrow,20,US,Thu Jan 23 01:50:02 2020,83,71.29,-156.79,-5.8,9.17
ponca city,90,US,Thu Jan 23 01:52:22 2020,100,36.71,-97.09,39,6.93
sambava,100,MG,Thu Jan 23 01:52:22 2020,99,-14.27,50.17,74.64,1.12
pisco,90,PE,Thu Jan 23 01:48:21 2020,83,-13.7,-76.22,75.2,3.36
biak,96,ID,Thu Jan 23 01:39:51 2020,72,-0.91,122.88,83.48,8.05
ucluelet,90,CA,Thu Jan 23 01:47:28 2020,93,48.93,-125.55,46,9.17
dikson,100,RU,Thu Jan 23 01:52:22 2020,95,73.51,80.55,-13.23,14.88
eyl,31,SO,Thu Jan 23 01:52:23 2020,82,7.98,49.82,78.13,22.53
vilyuysk,100,RU,Thu Jan 23 01:52:23 2020,96,63.76,121.62,-26.36,6.31
marzuq,0,YE,Thu Jan 23 01:48:40 2020,84,14.4,46.47,55.53,4.12
vao,0,NC,Thu Jan 23 01:52:23 2020,74,-22.67,167.48,77.2,15.43
richards bay,100,ZA,Thu Jan 23 01:43:14 2020,77,-28.78,32.04,74.48,7.4
waipawa,0,NZ,Thu Jan 23 01:52:23 2020,68,-41.41,175.52,75.99,23.04
hirara,75,JP,Thu Jan 23 01:52:24 2020,73,24.8,125.28,73.4,11.41
neftcala,0,AZ,Thu Jan 23 01:52:24 2020,49,39.37,49.25,46.83,8.86
geraldton,20,AU,Thu Jan 23 01:48:33 2020,50,-28.77,114.6,75.2,19.46
nichinan,75,JP,Thu Jan 23 01:52:24 2020,88,31.6,131.37,62.6,1.12
ciudad bolivar,27,VE,Thu Jan 23 01:43:09 2020,62,8.12,-63.55,79.07,7.81
marsh harbour,33,BS,Thu Jan 23 01:52:25 2020,69,26.54,-77.06,70.36,27.09
roald,100,NO,Thu Jan 23 01:41:01 2020,75,62.58,6.13,50,23.04
moron,0,AR,Thu Jan 23 01:48:23 2020,78,-34.65,-58.62,78.01,11.41
kyren,29,RU,Thu Jan 23 01:52:25 2020,69,51.68,102.14,-1.07,5.95
slave lake,1,CA,Thu Jan 23 01:52:25 2020,100,55.28,-114.77,21.2,4.7
ruidoso,1,US,Thu Jan 23 01:52:25 2020,55,33.33,-105.67,50,13.87
coquimbo,53,CL,Thu Jan 23 01:48:22 2020,82,-29.95,-71.34,64.4,5.82
talas,12,TR,Thu Jan 23 01:52:26 2020,92,38.69,35.55,17.6,2.24
yulara,50,AU,Thu Jan 23 01:52:26 2020,23,-25.24,130.99,86,14.99
talnakh,75,RU,Thu Jan 23 01:52:26 2020,84,69.49,88.4,-2.2,24.61
tarime,100,TZ,Thu Jan 23 01:52:26 2020,79,-1.35,34.37,65.55,0.83
muros,40,ES,Thu Jan 23 01:52:27 2020,100,42.78,-9.06,53.01,2.24
kalinovskaya,68,RU,Thu Jan 23 01:52:27 2020,80,43.58,45.52,30.2,4.47
maceio,20,BR,Thu Jan 23 01:48:35 2020,88,-9.67,-35.74,78.8,4.7
codrington,32,AU,Thu Jan 23 01:52:27 2020,66,-38.27,141.97,59.27,37.56
leningradskiy,51,RU,Thu Jan 23 01:52:27 2020,91,69.38,178.42,-20.16,4.83
great yarmouth,100,GB,Thu Jan 23 01:52:28 2020,93,52.61,1.73,46,2.24
kiunga,1,PG,Thu Jan 23 01:52:28 2020,43,-6.12,141.29,97.75,1.81
souillac,75,MU,Thu Jan 23 01:43:17 2020,94,-20.52,57.52,79,11.41
bilibino,80,RU,Thu Jan 23 01:52:28 2020,100,68.05,166.44,-40.18,0.13
horasan,0,TR,Thu Jan 23 01:52:29 2020,72,40.05,42.17,8.08,1.36
comodoro rivadavia,90,AR,Thu Jan 23 01:43:18 2020,43,-45.87,-67.5,73.4,9.17
tambopata,100,PE,Thu Jan 23 01:52:29 2020,96,-12.73,-69.18,75.09,1.32
esso,0,RU,Thu Jan 23 01:50:48 2020,76,55.93,158.7,-3.91,0.74
lake park,34,US,Thu Jan 23 01:52:30 2020,93,26.8,-80.07,59,3.36
nome,90,US,Thu Jan 23 01:52:30 2020,84,64.5,-165.41,6.8,14.99
tingi,100,TZ,Thu Jan 23 01:52:30 2020,90,-11.3,35.03,67.08,3.04
parkes,78,AU,Thu Jan 23 01:52:30 2020,21,-33.13,148.18,98.01,3
polovinnoye,100,RU,Thu Jan 23 01:52:30 2020,92,54.79,65.99,30.34,17.25
jacareacanga,100,BR,Thu Jan 23 01:52:30 2020,97,-6.22,-57.75,73.56,1.32
salalah,75,OM,Thu Jan 23 01:48:28 2020,60,17.02,54.09,75.2,8.05
guliston,0,UZ,Thu Jan 23 01:52:31 2020,82,40.49,68.78,32.27,8.99
meulaboh,85,ID,Thu Jan 23 01:49:17 2020,78,4.14,96.13,80.67,7.36
faanui,33,PF,Thu Jan 23 01:52:31 2020,75,-16.48,-151.75,82.6,10.11
ancud,0,CL,Thu Jan 23 01:52:31 2020,67,-41.87,-73.82,62.6,10.29
santiago,0,CL,Thu Jan 23 01:49:15 2020,56,-33.46,-70.65,71.6,13.87
sharqpur,0,PK,Thu Jan 23 01:52:32 2020,87,31.46,74.1,44.6,3.36
kilindoni,100,TZ,Thu Jan 23 01:52:32 2020,84,-7.91,39.67,80.89,9.57
kavaratti,2,IN,Thu Jan 23 01:43:20 2020,76,10.57,72.64,82.47,12.08
guerrero negro,0,MX,Thu Jan 23 01:51:01 2020,84,27.98,-114.06,60.33,11.7
novyy urengoy,100,RU,Thu Jan 23 01:52:32 2020,94,66.08,76.63,1.29,17.6
arraial do cabo,100,BR,Thu Jan 23 01:50:57 2020,90,-22.97,-42.03,75.45,3.09
shimanovsk,100,RU,Thu Jan 23 01:52:33 2020,95,52,127.7,-3.73,6.2
airai,95,TL,Thu Jan 23 01:52:33 2020,56,-8.93,125.41,82.51,4.45
mercedes,0,AR,Thu Jan 23 01:47:47 2020,79,-34.65,-59.43,78.01,8.55
khowst,0,AF,Thu Jan 23 01:52:33 2020,31,33.38,69.88,34.25,3.15
gamba,100,GA,Thu Jan 23 01:52:34 2020,93,-2.65,10,78.19,3.49
coihaique,5,CL,Thu Jan 23 01:43:09 2020,45,-45.58,-72.07,66.2,9.17
auki,10,SB,Thu Jan 23 01:52:34 2020,70,-8.77,160.7,84.54,9.37
irece,100,BR,Thu Jan 23 01:52:34 2020,96,-11.3,-41.86,68.29,1.1
alice springs,36,AU,Thu Jan 23 01:52:34 2020,20,-23.7,133.88,96.8,9.17
roebourne,0,AU,Thu Jan 23 01:52:35 2020,20,-20.78,117.13,100.83,7.27
yar-sale,100,RU,Thu Jan 23 01:52:35 2020,93,66.83,70.83,6.89,14.83
asmara,91,ER,Thu Jan 23 01:52:35 2020,88,15.33,38.93,52.83,4.36
natal,40,BR,Thu Jan 23 01:52:35 2020,78,-5.79,-35.21,82.4,8.05
talcahuano,90,CL,Thu Jan 23 01:52:35 2020,87,-36.72,-73.12,60.8,6.93
alofi,20,NU,Thu Jan 23 01:49:16 2020,55,-19.06,-169.92,86,11.41
montrose,90,US,Thu Jan 23 01:52:36 2020,86,38.42,-108.27,35.6,4.7
bathsheba,75,BB,Thu Jan 23 01:52:36 2020,69,13.22,-59.52,78.8,17.22
diego de almagro,0,CL,Thu Jan 23 01:43:15 2020,68,-26.37,-70.05,59.5,1.21
mingguang,100,CN,Thu Jan 23 01:52:36 2020,73,32.78,117.96,48.67,9.22
gazojak,0,TM,Thu Jan 23 01:52:37 2020,85,41.19,61.4,31.82,10.42
mount gambier,75,AU,Thu Jan 23 01:43:03 2020,71,-37.83,140.77,57.2,26.4
benguela,100,AO,Thu Jan 23 01:48:50 2020,83,-12.58,13.41,77.97,4.25
mount pleasant,90,US,Thu Jan 23 01:52:37 2020,75,32.79,-79.86,46.4,6.93
victoria,20,HK,Thu Jan 23 01:52:37 2020,78,22.29,114.16,73.99,10.29
rincon,1,US,Thu Jan 23 01:52:38 2020,60,32.3,-81.24,48.99,7.02
yevlax,0,AZ,Thu Jan 23 01:52:38 2020,53,40.61,47.15,38.97,17.07
vila franca do campo,75,PT,Thu Jan 23 01:52:38 2020,82,37.72,-25.43,55.4,9.17
sisimiut,100,GL,Thu Jan 23 01:52:38 2020,92,66.94,-53.67,9.05,20.96
bereda,90,ES,Thu Jan 23 01:52:38 2020,100,43.27,-7.54,51.01,1.1
husavik,75,IS,Thu Jan 23 01:52:38 2020,43,66.04,-17.34,33.8,41.38
carutapera,82,BR,Thu Jan 23 01:52:39 2020,81,-1.2,-46.02,81.63,15.32
inyonga,100,TZ,Thu Jan 23 01:52:39 2020,95,-6.72,32.07,65.98,3.62
ketchikan,90,US,Thu Jan 23 01:52:39 2020,81,55.34,-131.65,42.8,18.34
kayerkan,75,RU,Thu Jan 23 01:52:39 2020,84,69.35,87.76,-2.2,24.61
pointe michel,50,DM,Thu Jan 23 01:52:39 2020,79,15.25,-61.38,78.22,18.25
ribeira grande,1,PT,Thu Jan 23 01:52:39 2020,76,38.52,-28.7,53.1,7.29
tommot,100,RU,Thu Jan 23 01:52:40 2020,95,58.96,126.29,-9.56,8.75
byron bay,56,AU,Thu Jan 23 01:52:40 2020,78,-28.65,153.62,93,21.92
riyadh,40,SA,Thu Jan 23 01:50:44 2020,43,24.69,46.72,50,13.87
nileshwar,20,IN,Thu Jan 23 01:52:40 2020,88,12.25,75.1,75.2,6.93
yongan,0,CN,Thu Jan 23 01:52:40 2020,79,39.7,113.69,20.84,4.27
vanderhoof,94,CA,Thu Jan 23 01:52:41 2020,94,54.02,-124.02,23.54,5.5
seligenstadt,75,DE,Thu Jan 23 01:52:41 2020,76,50.04,8.97,33.01,2.48
kolomak,91,UA,Thu Jan 23 01:52:41 2020,80,49.84,35.3,30.33,18.05
prokopyevsk,93,RU,Thu Jan 23 01:52:41 2020,92,53.91,86.72,17.26,10.67
poronaysk,0,RU,Thu Jan 23 01:52:41 2020,77,49.22,143.12,12.09,0.89
bang khla,20,TH,Thu Jan 23 01:52:41 2020,74,13.72,101.21,88,8.05
lahad datu,41,MY,Thu Jan 23 01:52:42 2020,60,5.03,118.33,85.1,1.23
kankon,23,IN,Thu Jan 23 01:52:42 2020,64,15.02,74.02,73.4,6.93
kainantu,72,PG,Thu Jan 23 01:52:42 2020,79,-6.29,145.87,72.41,2.48
masty,1,BY,Thu Jan 23 01:52:42 2020,82,53.41,24.54,31.41,12.57
pangody,100,RU,Thu Jan 23 01:48:25 2020,92,65.85,74.49,4.51,17.43
minggang,100,CN,Thu Jan 23 01:52:43 2020,69,32.46,114.05,44.8,7.87
port-gentil,0,GA,Thu Jan 23 01:43:19 2020,76,-0.72,8.78,83.19,6.08
vila velha,90,BR,Thu Jan 23 01:52:43 2020,94,-20.33,-40.29,73.4,3.36
chenzhou,100,CN,Thu Jan 23 01:43:09 2020,83,25.8,113.03,49.96,3.33
belmonte,20,BR,Thu Jan 23 01:52:44 2020,88,-15.86,-38.88,75.2,8.05
kangaatsiaq,100,GL,Thu Jan 23 01:52:44 2020,90,68.31,-53.46,12.34,7.63
sur,34,OM,Thu Jan 23 01:49:48 2020,79,22.57,59.53,65.37,4.03
dengfeng,100,CN,Thu Jan 23 01:52:44 2020,56,34.46,113.03,41.95,3.96
aykhal,0,RU,Thu Jan 23 01:52:44 2020,65,66,111.5,-38.2,3.58
hay river,75,CA,Thu Jan 23 01:52:45 2020,92,60.82,-115.8,19.4,6.93
haines junction,99,CA,Thu Jan 23 01:52:45 2020,97,60.75,-137.51,6.76,4.14
renala khurd,0,PK,Thu Jan 23 01:52:45 2020,67,30.88,73.6,46.81,5.1
nikolskoye,75,RU,Thu Jan 23 01:52:36 2020,50,59.7,30.79,28.4,26.84
masterton,17,NZ,Thu Jan 23 01:52:45 2020,81,-40.96,175.66,75.99,6.33
tautira,20,PF,Thu Jan 23 01:52:45 2020,66,-17.73,-149.15,87.8,16.11
dunedin,44,NZ,Thu Jan 23 01:50:33 2020,68,-45.87,170.5,66.99,5.1
zhangzhou,40,CN,Thu Jan 23 01:52:46 2020,88,24.51,117.66,66.2,2.24
borovoy,40,RU,Thu Jan 23 01:52:46 2020,92,55.43,86.08,15.8,6.71
kendari,100,ID,Thu Jan 23 01:52:46 2020,81,-3.94,122.5,82.92,6.73
rundu,63,NA,Thu Jan 23 01:52:46 2020,60,-17.93,19.77,73.4,1.12
chai badan,10,TH,Thu Jan 23 01:52:47 2020,79,15.2,101.13,86,1.01
oksfjord,100,NO,Thu Jan 23 01:52:47 2020,73,70.24,22.35,28.4,19.46
stromness,100,GB,Thu Jan 23 01:52:47 2020,93,58.97,-3.3,48.2,28.86
xai-xai,0,MZ,Thu Jan 23 01:42:59 2020,88,-25.05,33.64,67.66,2.08
klaksvik,100,FO,Thu Jan 23 01:48:34 2020,100,62.23,-6.59,46.4,10.29
bilma,14,NE,Thu Jan 23 01:43:23 2020,21,18.69,12.92,59.02,9.22
pevek,100,RU,Thu Jan 23 01:52:48 2020,99,69.7,170.31,-18.35,4.27
fortuna,90,US,Thu Jan 23 01:42:58 2020,71,40.6,-124.16,57,5.57
chokurdakh,100,RU,Thu Jan 23 01:52:48 2020,97,70.63,147.92,-20.58,8.84
esperance,75,AU,Thu Jan 23 01:52:49 2020,55,-33.87,121.9,66.2,17.22
mormugao,46,IN,Thu Jan 23 01:52:49 2020,64,15.4,73.8,73.4,6.93
iralaya,43,HN,Thu Jan 23 01:52:49 2020,75,15,-83.23,76.23,23.6
okulovka,100,RU,Thu Jan 23 01:52:49 2020,66,58.4,33.29,24.71,13.98
nuuk,100,GL,Thu Jan 23 01:52:49 2020,61,64.18,-51.72,15.8,19.46
makakilo city,1,US,Thu Jan 23 01:49:54 2020,64,21.35,-158.09,80.01,4.7
mae sot,63,TH,Thu Jan 23 01:52:50 2020,93,16.72,98.57,79,0.78
finnsnes,100,NO,Thu Jan 23 01:52:50 2020,92,69.23,17.98,32,12.75
grindavik,75,IS,Thu Jan 23 01:52:50 2020,86,63.84,-22.43,30.2,39.15
jalu,0,LY,Thu Jan 23 01:43:00 2020,67,29.03,21.55,49.5,6.64
tazovskiy,100,RU,Thu Jan 23 01:43:05 2020,94,67.47,78.7,-0.78,14.25
svetlyy,75,RU,Thu Jan 23 01:52:51 2020,69,54.67,20.13,39.2,11.18
opole lubelskie,75,PL,Thu Jan 23 01:52:51 2020,87,51.15,21.97,36,11.41
dali,0,CN,Thu Jan 23 01:52:51 2020,48,25.7,100.18,48.04,4.68
belaya gora,95,RU,Thu Jan 23 01:52:52 2020,93,68.53,146.42,-29.06,4.47
qingdao,0,CN,Thu Jan 23 01:52:52 2020,93,36.1,120.37,39.2,2.24
charlestown,4,AU,Thu Jan 23 01:52:52 2020,21,-32.95,151.67,106,20.8
kargasok,100,RU,Thu Jan 23 01:52:52 2020,91,59.06,80.86,13.86,14.27
ouadda,71,CF,Thu Jan 23 01:52:52 2020,22,8.08,22.4,57.94,6.04
tabas,100,IR,Thu Jan 23 01:52:53 2020,66,33.6,56.92,48.2,2.24
bonanza,11,NI,Thu Jan 23 01:52:53 2020,99,14.03,-84.59,65.21,1.83
aguimes,20,ES,Thu Jan 23 01:43:21 2020,58,27.91,-15.45,55.99,4.7
mareeba,92,AU,Thu Jan 23 01:52:53 2020,74,-17,145.43,91,8.05
segovia,26,ES,Thu Jan 23 01:52:54 2020,72,41.17,-4,41,6.69
chabahar,19,IR,Thu Jan 23 01:48:57 2020,81,25.29,60.64,65.03,7.29
darab,97,IR,Thu Jan 23 01:52:54 2020,83,28.75,54.54,48.69,4.05
rudbar,74,AF,Thu Jan 23 01:52:54 2020,75,30.15,62.6,51.4,3.91
pucallpa,75,PE,Thu Jan 23 01:50:32 2020,94,-8.38,-74.55,77,3.36
kirakira,56,SB,Thu Jan 23 01:52:54 2020,78,-10.45,161.92,82.06,1.16
lazaro cardenas,47,MX,Thu Jan 23 01:52:55 2020,83,17.96,-102.2,75.97,3.13
buckeye,1,US,Thu Jan 23 01:52:55 2020,76,33.37,-112.58,62.01,4.7
krasnoselkup,97,RU,Thu Jan 23 01:52:55 2020,95,65.7,82.47,-0.26,15.32
itarema,50,BR,Thu Jan 23 01:52:55 2020,93,-2.92,-39.92,75.97,3.24
winnemucca,90,US,Thu Jan 23 01:52:56 2020,49,40.97,-117.74,48.2,5.82
paris,0,FR,Thu Jan 23 01:49:20 2020,63,48.85,2.35,33.01,10.29
lowestoft,100,GB,Thu Jan 23 01:52:56 2020,93,52.48,1.75,44.6,2.24
santa catarina,100,BR,Thu Jan 23 01:52:56 2020,99,-27,-50,59.56,1.25
la ronge,90,CA,Thu Jan 23 01:51:42 2020,92,55.1,-105.28,17.6,4.7
uruguaiana,0,BR,Thu Jan 23 01:52:56 2020,78,-29.75,-57.09,73.4,6.93
harboore,58,DK,Thu Jan 23 01:52:57 2020,100,56.62,8.18,41,8.05
minnedosa,90,CA,Thu Jan 23 01:52:57 2020,85,50.25,-99.84,23,9.17
fort nelson,40,CA,Thu Jan 23 01:52:57 2020,92,58.81,-122.7,5,2.24
hambantota,20,LK,Thu Jan 23 01:43:02 2020,100,6.12,81.12,75.2,8.05
diamantino,100,BR,Thu Jan 23 01:52:57 2020,89,-14.41,-56.45,74.91,2.86
huanan,100,CN,Thu Jan 23 01:52:58 2020,85,46.22,130.52,14.32,1.63
monywa,0,MM,Thu Jan 23 01:52:58 2020,58,22.12,95.13,70.5,6.8
yaroslavl,90,RU,Thu Jan 23 01:52:58 2020,68,57.63,39.87,26.6,8.95
lagos,20,NG,Thu Jan 23 01:52:58 2020,78,6.58,3.75,80.6,3.36
athabasca,96,CA,Thu Jan 23 01:52:58 2020,94,54.72,-113.29,20.53,5.39
san policarpo,67,PH,Thu Jan 23 01:52:59 2020,71,12.18,125.51,81.39,11.65
brilon,90,DE,Thu Jan 23 01:52:59 2020,100,51.4,8.58,37.99,1.12
beringovskiy,32,RU,Thu Jan 23 01:51:50 2020,94,63.05,179.32,-12.1,6.87
mongoumba,100,CF,Thu Jan 23 01:52:59 2020,33,3.64,18.59,67.66,3.56
lavrentiya,100,RU,Thu Jan 23 01:48:40 2020,88,65.58,-171,-9.36,6.02
igarka,100,RU,Thu Jan 23 01:53:00 2020,94,67.47,86.58,-1.84,20.83
tateyama,75,JP,Thu Jan 23 01:53:00 2020,87,34.98,139.87,45,8.05
khani,90,GE,Thu Jan 23 01:53:00 2020,93,41.96,42.96,37.4,4.7
esterhazy,100,CA,Thu Jan 23 01:53:00 2020,91,50.65,-102.08,17.08,5.55
belgrade,75,RS,Thu Jan 23 01:49:49 2020,92,44.8,20.47,30.2,9.17
candido mendes,100,BR,Thu Jan 23 01:53:01 2020,94,-1.45,-45.72,76.66,4.14
changji,69,CN,Thu Jan 23 01:53:01 2020,84,44.02,87.32,6.8,4.47
tromso,75,NO,Thu Jan 23 01:53:01 2020,92,69.65,18.96,28.4,8.05
west wendover,90,US,Thu Jan 23 01:53:01 2020,69,40.74,-114.07,39.2,1.28
dickinson,90,US,Thu Jan 23 01:53:01 2020,93,29.46,-95.05,61,11.41
verkhnyaya inta,97,RU,Thu Jan 23 01:53:01 2020,92,65.98,60.31,12.18,6.93
krasnovishersk,100,RU,Thu Jan 23 01:53:02 2020,97,60.41,57.08,14.32,2.44
ponta delgada,75,PT,Thu Jan 23 01:53:02 2020,82,37.73,-25.67,55.4,9.17
leh,100,IN,Thu Jan 23 01:53:02 2020,86,34.17,77.58,-12.8,3.98
sitka,90,US,Thu Jan 23 01:53:02 2020,86,57.05,-135.33,39.2,7.94
kalangala,100,UG,Thu Jan 23 01:53:02 2020,68,-0.31,32.23,68,4.7
sokol,100,RU,Thu Jan 23 01:53:03 2020,79,59.46,40.12,19.56,12.59
baykit,97,RU,Thu Jan 23 01:53:03 2020,98,61.67,96.37,-15.92,2.33
magistralnyy,100,RU,Thu Jan 23 01:53:03 2020,87,56.17,107.45,-17.82,6.46
cherskiy,100,RU,Thu Jan 23 01:53:03 2020,98,68.75,161.3,-32.98,4.99
axim,99,GH,Thu Jan 23 01:53:03 2020,90,4.87,-2.24,77.76,3.04
pemangkat,1,ID,Thu Jan 23 01:53:04 2020,72,1.17,108.97,84.06,6.46
kruisfontein,33,ZA,Thu Jan 23 01:43:04 2020,93,-34,24.73,58.1,5.37
camocim,45,BR,Thu Jan 23 01:53:04 2020,97,-2.9,-40.84,73.9,2.71
saint-francois,21,FR,Thu Jan 23 01:53:04 2020,77,46.42,3.91,32,3.36
prince rupert,90,CA,Thu Jan 23 01:53:04 2020,75,54.32,-130.32,44.6,9.17
barcelos,100,PT,Thu Jan 23 01:53:04 2020,62,41.54,-8.62,51.8,6.93
beihai,100,CN,Thu Jan 23 01:53:05 2020,87,21.48,109.1,70.41,11.83
isiro,93,CD,Thu Jan 23 01:53:05 2020,37,2.77,27.62,59.41,3.2
myrtle beach,1,US,Thu Jan 23 01:49:11 2020,73,33.69,-78.89,44.6,5.82
luderitz,0,NA,Thu Jan 23 01:43:21 2020,82,-26.65,15.16,64.4,2.24
camacha,20,PT,Thu Jan 23 01:49:16 2020,82,33.08,-16.33,59,11.41
vestmanna,100,FO,Thu Jan 23 01:53:05 2020,100,62.16,-7.17,46.4,10.29
hailar,0,CN,Thu Jan 23 01:53:06 2020,84,49.2,119.7,-5.39,16.62
rawson,82,AR,Thu Jan 23 01:43:06 2020,66,-43.3,-65.1,68.36,11.74
srednekolymsk,65,RU,Thu Jan 23 01:53:06 2020,96,67.45,153.68,-34.06,7
conde,40,BR,Thu Jan 23 01:53:06 2020,88,-7.26,-34.91,80.6,4.7
faya,75,SA,Thu Jan 23 01:43:10 2020,87,18.39,42.45,53.6,6.93
saint-augustin,100,CA,Thu Jan 23 01:53:06 2020,90,51.23,-58.65,21.51,12.06
cockburn town,100,TC,Thu Jan 23 01:49:59 2020,74,21.46,-71.14,73.78,20.47
shushtar,12,IR,Thu Jan 23 01:53:07 2020,68,32.05,48.86,49.55,4.05
hearst,100,CA,Thu Jan 23 01:53:07 2020,96,49.68,-83.67,26.89,6.89
serdobsk,100,RU,Thu Jan 23 01:53:07 2020,96,52.46,44.22,26.6,9.71
peace river,20,CA,Thu Jan 23 01:53:07 2020,74,56.25,-117.29,30.2,12.75
matagami,90,CA,Thu Jan 23 01:53:08 2020,86,49.75,-77.63,30.2,9.17
namibe,100,AO,Thu Jan 23 01:53:08 2020,75,-15.2,12.15,74.21,9.78
marystown,97,CA,Thu Jan 23 01:53:08 2020,67,47.17,-55.15,20.7,12.91
sicamous,90,CA,Thu Jan 23 01:53:09 2020,95,50.83,-118.99,33.01,1.95
juneau,90,US,Thu Jan 23 01:49:03 2020,86,58.3,-134.42,35.6,5.1
alamosa,40,US,Thu Jan 23 01:53:09 2020,50,37.47,-105.87,28.4,5.82
los llanos de aridane,75,ES,Thu Jan 23 01:53:09 2020,58,28.66,-17.92,59,5.82
phangnga,20,TH,Thu Jan 23 01:52:17 2020,74,8.45,98.53,82.4,1.12
stepnogorsk,100,KZ,Thu Jan 23 01:53:09 2020,84,52.35,71.89,26.73,26.93
zemio,100,CF,Thu Jan 23 01:49:10 2020,25,5.03,25.14,59.59,5.26
jiaocheng,95,CN,Thu Jan 23 01:53:10 2020,58,24.68,116.14,76.3,3.8
red bluff,1,US,Thu Jan 23 01:53:10 2020,76,40.18,-122.24,57.2,6.93
vanimo,100,PG,Thu Jan 23 01:53:10 2020,78,-2.67,141.3,82.26,9.22
leshan,39,CN,Thu Jan 23 01:53:11 2020,59,29.56,103.76,54.68,0.58
port augusta,90,AU,Thu Jan 23 01:53:11 2020,43,-32.5,137.77,73.99,20.8
los cedrales,75,PY,Thu Jan 23 01:53:11 2020,88,-25.65,-54.7,73.4,12.75
nortelandia,100,BR,Thu Jan 23 01:53:11 2020,97,-14.45,-56.8,73.69,4.29
kang,1,BW,Thu Jan 23 01:53:11 2020,47,-23.68,22.79,73.22,6.87
corner brook,90,CA,Thu Jan 23 01:53:11 2020,85,48.97,-57.95,23,3.85
san cristobal,40,VE,Thu Jan 23 01:50:12 2020,88,7.77,-72.22,77,4.7
caravelas,100,BR,Thu Jan 23 01:53:12 2020,86,-17.71,-39.25,78.33,26.35
kyra,0,RU,Thu Jan 23 01:53:12 2020,78,49.58,111.98,-4.41,3.27
westport,1,US,Thu Jan 23 01:51:15 2020,68,41.14,-73.36,33.01,4.14
nuevitas,0,CU,Thu Jan 23 01:53:12 2020,67,21.55,-77.26,57.2,4.7
flinders,90,AU,Thu Jan 23 01:53:13 2020,12,-34.58,150.86,105.01,25.28
atambua,49,ID,Thu Jan 23 01:49:57 2020,66,-9.11,124.89,83.55,6.93
liverpool,90,GB,Thu Jan 23 01:52:46 2020,100,53.41,-2.98,45,2.24
palora,74,EC,Thu Jan 23 01:53:13 2020,95,-1.7,-77.93,68.61,2.77
port shepstone,81,ZA,Thu Jan 23 01:53:13 2020,92,-30.74,30.45,67.78,2.8
saint-joseph,90,RE,Thu Jan 23 01:53:13 2020,88,-21.37,55.62,78.8,2.24
henties bay,0,NA,Thu Jan 23 01:53:14 2020,93,-22.12,14.28,66,1.99
sabang,90,ID,Thu Jan 23 01:49:23 2020,79,5.89,95.32,82.33,20.11
goya,4,AR,Thu Jan 23 01:53:14 2020,72,-29.14,-59.26,71.15,8.25
prainha,100,BR,Thu Jan 23 01:53:14 2020,72,-1.8,-53.48,78.62,3.53
orbetello,20,IT,Thu Jan 23 01:53:14 2020,86,42.44,11.22,45,6.93
wukari,99,NG,Thu Jan 23 01:53:14 2020,20,7.85,9.78,70.32,6.76
paita,97,PE,Thu Jan 23 01:53:15 2020,75,-5.09,-81.11,74.08,8.21
soyo,97,AO,Thu Jan 23 01:53:15 2020,92,-6.13,12.37,77.97,3.09
vizinga,100,RU,Thu Jan 23 01:53:15 2020,91,61.07,50.1,16.54,8.95
san-pedro,56,CI,Thu Jan 23 01:53:15 2020,83,4.75,-6.64,81.72,8.79
bay roberts,90,CA,Thu Jan 23 01:53:16 2020,79,47.6,-53.26,23,10.29
dingle,15,PH,Thu Jan 23 01:53:16 2020,71,11,122.67,79.59,12.97
narimanov,90,RU,Thu Jan 23 01:53:16 2020,93,46.69,47.85,37.4,13.42
vestmannaeyjar,100,IS,Thu Jan 23 01:53:16 2020,68,63.44,-20.27,34.66,44.56
semnan,100,IR,Thu Jan 23 01:53:16 2020,89,35.57,53.4,35.35,8.16
akyab,12,MM,Thu Jan 23 01:48:48 2020,41,20.15,92.9,69.48,8.37
mayumba,97,GA,Thu Jan 23 01:53:17 2020,81,-3.43,10.66,82.56,7.54
zyryanovsk,100,KZ,Thu Jan 23 01:53:17 2020,87,49.74,84.27,19.35,4.65
jishou,98,CN,Thu Jan 23 01:53:17 2020,89,28.32,109.72,42.82,5.39
columbus,1,US,Thu Jan 23 01:51:12 2020,63,39.96,-83,30.99,3.36
redmond,90,US,Thu Jan 23 01:49:08 2020,100,47.67,-122.12,46.99,4.7
puerto colombia,20,CO,Thu Jan 23 01:53:18 2020,83,10.99,-74.95,78.8,3.36
saint-leu,90,RE,Thu Jan 23 01:53:18 2020,88,-21.15,55.28,78.8,2.24
ulladulla,100,AU,Thu Jan 23 01:51:31 2020,12,-35.35,150.47,104,25.28
rocha,0,UY,Thu Jan 23 01:53:18 2020,96,-34.48,-54.33,63.59,6.08
watsa,97,CD,Thu Jan 23 01:53:18 2020,43,3.04,29.54,57.38,1.25
gigmoto,8,PH,Thu Jan 23 01:53:19 2020,74,13.78,124.39,79.5,12.53
barentu,19,ER,Thu Jan 23 01:53:19 2020,88,15.11,37.59,47.17,1.63
the valley,20,AI,Thu Jan 23 01:48:42 2020,78,18.22,-63.06,78.8,12.75
kapenguria,100,KE,Thu Jan 23 01:53:19 2020,64,1.25,35.09,57.97,2.17
kumeny,100,RU,Thu Jan 23 01:53:19 2020,94,58.11,49.92,20.97,10.85
yerbogachen,100,RU,Thu Jan 23 01:52:00 2020,96,61.28,108.01,-19.41,6.06
douglas,90,US,Thu Jan 23 01:52:29 2020,100,41.3,-96.17,34,6.93
mount isa,75,AU,Thu Jan 23 01:53:20 2020,49,-20.73,139.5,91.4,19.46
hidrolandia,98,BR,Thu Jan 23 01:53:20 2020,95,-4.41,-40.44,74.23,3.44
ust-nera,100,RU,Thu Jan 23 01:49:04 2020,99,64.57,143.2,-32.8,2.06
naze,75,JP,Thu Jan 23 01:53:20 2020,78,28.37,129.48,73.4,18.34
los lunas,1,US,Thu Jan 23 01:53:21 2020,52,34.81,-106.73,44.01,5.82
santa ines,99,BR,Thu Jan 23 01:53:21 2020,96,-3.67,-45.38,75.04,3.31
lixourion,32,GR,Thu Jan 23 01:53:21 2020,76,38.2,20.43,55.94,24.85
ambilobe,100,MG,Thu Jan 23 01:53:21 2020,91,-13.2,49.05,77.7,8.28
pryozerne,100,UA,Thu Jan 23 01:49:42 2020,96,45.27,36.33,36.68,24.4
ballitoville,52,ZA,Thu Jan 23 01:53:21 2020,93,-29.54,31.21,70,2.24
wattegama,40,LK,Thu Jan 23 01:53:22 2020,100,6.8,81.48,77,9.17
berlevag,100,NO,Thu Jan 23 01:53:22 2020,75,70.86,29.09,26.6,20.13
kristiansund,100,NO,Thu Jan 23 01:53:22 2020,66,63.11,7.73,48.2,29.97
novopskov,100,UA,Thu Jan 23 01:53:22 2020,88,49.55,39.09,32.67,12.84
aripuana,100,BR,Thu Jan 23 01:48:29 2020,97,-9.17,-60.63,74.07,1.25
vanavara,100,RU,Thu Jan 23 01:53:23 2020,96,60.34,102.28,-11.09,8.46
aklavik,40,CA,Thu Jan 23 01:53:23 2020,74,68.22,-135.01,-23.8,2.24
tiznit,0,MA,Thu Jan 23 01:53:23 2020,74,29.58,-9.5,46.44,4.47
port victoria,100,KE,Thu Jan 23 01:53:23 2020,52,0.09,33.98,73.69,6.87
mrakovo,100,RU,Thu Jan 23 01:53:23 2020,96,52.72,56.62,18.39,5.39
gerede,33,TR,Thu Jan 23 01:53:24 2020,59,40.8,32.2,30.49,4.63
canutama,94,BR,Thu Jan 23 01:53:24 2020,93,-6.53,-64.38,74.68,1.9
sao paulo do potengi,20,BR,Thu Jan 23 01:53:24 2020,83,-5.89,-35.76,82.4,6.93
sarakhs,100,IR,Thu Jan 23 01:53:24 2020,75,36.54,61.16,41,6.93
asau,90,RO,Thu Jan 23 01:53:24 2020,55,46.43,26.4,39.2,12.75
touros,20,BR,Thu Jan 23 01:53:24 2020,83,-5.2,-35.46,80.6,6.93
tarko-sale,100,RU,Thu Jan 23 01:53:25 2020,88,64.92,77.78,8.01,1.99
kameda,75,JP,Thu Jan 23 01:53:25 2020,70,37.87,139.12,48,4.7
gat,40,IL,Thu Jan 23 01:48:47 2020,93,31.61,34.76,46.99,1.12
tasiilaq,0,GL,Thu Jan 23 01:53:25 2020,62,65.61,-37.64,19.4,32.21
plerin,0,FR,Thu Jan 23 01:53:26 2020,69,48.54,-2.78,41,6.93
larnaca,0,CY,Thu Jan 23 01:53:00 2020,75,34.92,33.63,41,4.7
gazanjyk,0,TM,Thu Jan 23 01:53:26 2020,51,39.24,55.52,34.39,3.78
panguna,14,PG,Thu Jan 23 01:53:26 2020,70,-6.32,155.48,81.66,5.84
tupik,100,RU,Thu Jan 23 01:53:27 2020,89,54.43,119.93,-13.27,2.93
usinsk,100,RU,Thu Jan 23 01:49:02 2020,95,65.99,57.53,13.28,9.28
krasnokholmskiy,98,RU,Thu Jan 23 01:53:27 2020,94,55.99,55.05,21.51,13.94
sindor,99,RU,Thu Jan 23 01:53:27 2020,93,62.86,51.89,17.87,8.97
liwale,100,TZ,Thu Jan 23 01:53:27 2020,97,-9.77,37.93,70.07,2.37
lata,75,PT,Thu Jan 23 01:53:28 2020,93,40.16,-8.33,48.99,1.12
whitehorse,90,CA,Thu Jan 23 01:53:28 2020,84,60.72,-135.05,9,2.75
samarai,61,PG,Thu Jan 23 01:53:28 2020,62,-10.62,150.67,87.85,3.2
bo rai,20,TH,Thu Jan 23 01:53:28 2020,94,12.57,102.54,82.99,1.12
flin flon,100,CA,Thu Jan 23 01:53:28 2020,95,54.77,-101.86,1.72,3
mindelo,20,CV,Thu Jan 23 01:53:28 2020,77,16.89,-24.98,69.8,13.87
kanke,75,IN,Thu Jan 23 01:53:29 2020,87,23.43,85.32,59,2.24
bahia blanca,0,AR,Thu Jan 23 01:53:29 2020,42,-38.72,-62.27,77.07,13.09
garowe,6,SO,Thu Jan 23 01:53:29 2020,82,8.41,48.48,69.51,6.15
coolum beach,100,AU,Thu Jan 23 01:53:29 2020,81,-26.53,153.1,86,5.55
fernley,1,US,Thu Jan 23 01:53:29 2020,60,39.61,-119.25,53.6,8.05
san carlos de bariloche,20,AR,Thu Jan 23 01:53:30 2020,40,-41.15,-71.31,69.8,10.29
omboue,93,GA,Thu Jan 23 01:53:30 2020,94,-1.57,9.26,75.51,2.15
bellavista,20,PE,Thu Jan 23 01:53:30 2020,100,-7.06,-76.59,62.6,1.61
kudahuvadhoo,95,MV,Thu Jan 23 01:53:30 2020,81,2.67,72.89,83.43,19.55
tarakan,27,ID,Thu Jan 23 01:48:33 2020,63,3.3,117.63,82.36,5.12
barahona,82,DO,Thu Jan 23 01:53:30 2020,72,18.21,-71.1,77.83,8.93
cap malheureux,75,MU,Thu Jan 23 01:53:31 2020,94,-19.98,57.61,78.8,11.41
awbari,14,LY,Thu Jan 23 01:53:31 2020,37,26.59,12.78,49.96,11.05
delta del tigre,11,UY,Thu Jan 23 01:53:31 2020,69,-34.76,-56.39,73.4,10.29
nayoro,95,JP,Thu Jan 23 01:53:31 2020,79,44.35,142.46,24.57,8.25
great falls,1,US,Thu Jan 23 01:53:31 2020,47,47.5,-111.3,37.4,12.75
maloy,100,NO,Thu Jan 23 01:53:31 2020,93,61.94,5.11,46,23.04
durant,90,US,Thu Jan 23 01:53:32 2020,93,33.99,-96.37,41,10.29
quatre cocos,75,MU,Thu Jan 23 01:53:32 2020,94,-20.21,57.76,78.8,11.41
severnyy,29,RU,Thu Jan 23 01:53:32 2020,79,50.68,36.55,28.4,13.42
rumat heib,0,IL,Thu Jan 23 01:53:32 2020,78,32.78,35.31,40.51,4.54
palmer,20,US,Thu Jan 23 01:53:32 2020,79,42.16,-72.33,27,3.36
zyryanka,4,RU,Thu Jan 23 01:48:47 2020,94,65.75,150.85,-31.22,3.11
taltal,56,CL,Thu Jan 23 01:53:33 2020,81,-25.4,-70.48,62.89,1.21
urumqi,69,CN,Thu Jan 23 01:53:33 2020,84,43.8,87.6,6.8,4.47
shingu,75,JP,Thu Jan 23 01:53:33 2020,93,33.73,135.98,62.6,9.17
cooma,100,AU,Thu Jan 23 01:53:33 2020,26,-36.23,149.13,82.4,24.16
margate,75,GB,Thu Jan 23 01:53:33 2020,100,51.38,1.39,46,3.36
